[
	{
		"city": "Cairo",
		"name": "القاهرة",
		"latitude": 30.056111111,
		"longitude": 31.239444444,
		"timezone": "Africa/Cairo"
	},
	{
		"city": "Alexandria",
		"name": "الإسكندرية",
		"latitude": 31.2,
		"longitude": 29.916666666,
		"timezone": "Africa/Cairo"
	},
	{
		"city": "Giza",
		"name": "الجيزة",
		"latitude": 29.987,
		"longitude": 31.2118,
		"timezone": "Africa/Cairo"
	},
	{
		"city": "Shubra El-Kheima",
		"name": "شبرا الخيمة",
		"latitude": 30.128611111,
		"longitude": 31.242222222,
		"timezone": "Africa/Cairo"
	},
	{
		"city": "Helwan",
		"name": "حلوان",
		"latitude": 29.841944444,
		"longitude": 31.334166666,
		"timezone": "Africa/Cairo"
	},
	{
		"city": "Al-Matariyyah",
		"name": "المطرية",
		"latitude": 30.1295,
		"longitude": 31.2889,
		"timezone": "Africa/Cairo"
	},
	{
		"city": "El-Mahalla El-Kubra",
		"name": "المحلة الكبرى",
		"latitude": 30.966666666,
		"longitude": 31.166666666,
		"timezone": "Africa/Cairo"
	},
	{
		"city": "Port Said",
		"name": "بورسعيد",
		"latitude": 31.25,
		"longitude": 32.283333333,
		"timezone": "Africa/Cairo"
	},
	{
		"city": "Suez",
		"name": "السويس",
		"latitude": 29.966666666,
		"longitude": 32.533333333,
		"timezone": "Africa/Cairo"
	},
	{
		"city": "Mansoura",
		"name": "المنصورة",
		"latitude": 31.03637,
		"longitude": 31.38069,
		"timezone": "Africa/Cairo"
	},
	{
		"city": "Tanta",
		"name": "طنطا",
		"latitude": 30.783333333,
		"longitude": 31,
		"timezone": "Africa/Cairo"
	},
	{
		"city": "Markaz al Uqşur",
		"name": "مركز الاقصر",
		"latitude": 25.63,
		"longitude": 32.590277777,
		"timezone": "Africa/Cairo"
	},
	{
		"city": "Asyut",
		"name": "أسيوط",
		"latitude": 27.186944444,
		"longitude": 31.171388888,
		"timezone": "Africa/Cairo"
	},
	{
		"city": "Zagazig",
		"name": "الزقازيق",
		"latitude": 30.566666666,
		"longitude": 31.5,
		"timezone": "Africa/Cairo"
	},
	{
		"city": "Faiyum",
		"name": "الفيوم",
		"latitude": 29.3,
		"longitude": 30.833333333,
		"timezone": "Africa/Cairo"
	},
	{
		"city": "Ismailia",
		"name": "الإسماعيلية",
		"latitude": 30.583333333,
		"longitude": 32.266666666,
		"timezone": "Africa/Cairo"
	},
	{
		"city": "Aswan",
		"name": "أسوان",
		"latitude": 24.088919444,
		"longitude": 32.899730555,
		"timezone": "Africa/Cairo"
	},
	{
		"city": "Kafr ad Dawwār",
		"name": "كفر الدوار",
		"latitude": 31.133888888,
		"longitude": 30.129722222,
		"timezone": "Africa/Cairo"
	},
	{
		"city": "Damanhur",
		"name": "دمنهور",
		"latitude": 31.05,
		"longitude": 30.466666666,
		"timezone": "Africa/Cairo"
	},
	{
		"city": "Minya",
		"name": "المنيا",
		"latitude": 28.083333333,
		"longitude": 30.75,
		"timezone": "Africa/Cairo"
	},
	{
		"city": "Idku",
		"name": "إدكو",
		"latitude": 31.305833333,
		"longitude": 30.295555555,
		"timezone": "Africa/Cairo"
	},
	{
		"city": "Damietta",
		"name": "دمياط",
		"latitude": 31.416666666,
		"longitude": 31.816666666,
		"timezone": "Africa/Cairo"
	},
	{
		"city": "Luxor",
		"name": "الأقصر",
		"latitude": 25.696944444,
		"longitude": 32.642222222,
		"timezone": "Africa/Cairo"
	},
	{
		"city": "Qena",
		"name": "قنا",
		"latitude": 26.166666666,
		"longitude": 32.716666666,
		"timezone": "Africa/Cairo"
	},
	{
		"city": "New Cairo",
		"name": "القاهرة الجديدة",
		"latitude": 30.03,
		"longitude": 31.47,
		"timezone": "Africa/Cairo"
	},
	{
		"city": "Sohag",
		"name": "سوهاج",
		"latitude": 26.560555555,
		"longitude": 31.691666666,
		"timezone": "Africa/Cairo"
	},
	{
		"city": "Beni Suef",
		"name": "بني سويف",
		"latitude": 29.066666666,
		"longitude": 31.083333333,
		"timezone": "Africa/Cairo"
	},
	{
		"city": "Shibin Al Kawm, Al Minufiyah",
		"name": "شبين الكوم المنوفية",
		"latitude": 30.55,
		"longitude": 31,
		"timezone": "Africa/Cairo"
	},
	{
		"city": "Arish",
		"name": "العريش",
		"latitude": 31.133333333,
		"longitude": 33.8,
		"timezone": "Africa/Cairo"
	},
	{
		"city": "Hurghada",
		"name": "الغردقة",
		"latitude": 27.257777777,
		"longitude": 33.811666666,
		"timezone": "Africa/Cairo"
	},
	{
		"city": "Talkha",
		"name": "طلخا",
		"latitude": 31.059166666,
		"longitude": 31.376666666,
		"timezone": "Africa/Cairo"
	},
	{
		"city": "Banha",
		"name": "بنها",
		"latitude": 30.462777777,
		"longitude": 31.179722222,
		"timezone": "Africa/Cairo"
	},
	{
		"city": "Kafr el-Sheikh",
		"name": "كفر الشيخ",
		"latitude": 31.1,
		"longitude": 30.95,
		"timezone": "Africa/Cairo"
	},
	{
		"city": "Desouk",
		"name": "دسوق",
		"latitude": 31.1459,
		"longitude": 30.71609,
		"timezone": "Africa/Cairo"
	},
	{
		"city": "Bilbeis",
		"name": "بلبيس",
		"latitude": 30.416666666,
		"longitude": 31.566666666,
		"timezone": "Africa/Cairo"
	},
	{
		"city": "Mallawi",
		"name": "ملوي",
		"latitude": 27.730555555,
		"longitude": 30.8425,
		"timezone": "Africa/Cairo"
	},
	{
		"city": "Dikirnis",
		"name": "دكرنس",
		"latitude": 31.088888888,
		"longitude": 31.594722222,
		"timezone": "Africa/Cairo"
	},
	{
		"city": "Edfu",
		"name": "إدفو",
		"latitude": 24.978055555,
		"longitude": 32.878888888,
		"timezone": "Africa/Cairo"
	},
	{
		"city": "Jirjā",
		"name": "جرجا",
		"latitude": 26.338333333,
		"longitude": 31.891666666,
		"timezone": "Africa/Cairo"
	},
	{
		"city": "Mit Ghamr",
		"name": "ميت غمر",
		"latitude": 30.719166666,
		"longitude": 31.262777777,
		"timezone": "Africa/Cairo"
	},
	{
		"city": "Menouf",
		"name": "منوف",
		"latitude": 30.466666666,
		"longitude": 30.933333333,
		"timezone": "Africa/Cairo"
	},
	{
		"city": "Al Ḩawāmidīyah",
		"name": "الحوامدية",
		"latitude": 29.9,
		"longitude": 31.25,
		"timezone": "Africa/Cairo"
	},
	{
		"city": "Musturud",
		"name": "موسترود",
		"latitude": 30.138819444,
		"longitude": 31.292411111,
		"timezone": "Africa/Cairo"
	},
	{
		"city": "Belqas",
		"name": "بلقاس",
		"latitude": 31.233333333,
		"longitude": 31.366666666,
		"timezone": "Africa/Cairo"
	},
	{
		"city": "Markaz Jirjā",
		"name": "مركز جرجا",
		"latitude": 26.30683,
		"longitude": 31.84574,
		"timezone": "Africa/Cairo"
	},
	{
		"city": "Disūq",
		"name": "دسوق",
		"latitude": 31.1325,
		"longitude": 30.647777777,
		"timezone": "Africa/Cairo"
	},
	{
		"city": "Abu Kabir",
		"name": "ابو كبير",
		"latitude": 30.71666667,
		"longitude": 31.66666667,
		"timezone": "Africa/Cairo"
	},
	{
		"city": "Qalyub",
		"name": "قليوب",
		"latitude": 30.199722222,
		"longitude": 31.205277777,
		"timezone": "Africa/Cairo"
	},
	{
		"city": "Akhmīm",
		"name": "أخميم",
		"latitude": 26.5622,
		"longitude": 31.74566,
		"timezone": "Africa/Cairo"
	},
	{
		"city": "Al Maţarīyah",
		"name": "المعرية",
		"latitude": 31.182777777,
		"longitude": 32.031111111,
		"timezone": "Africa/Cairo"
	},
	{
		"city": "Maadi",
		"name": "المعادى",
		"latitude": 29.9667,
		"longitude": 31.25,
		"timezone": "Africa/Cairo"
	},
	{
		"city": "Zefta",
		"name": "زفتى",
		"latitude": 30.711944444,
		"longitude": 31.239444444,
		"timezone": "Africa/Cairo"
	},
	{
		"city": "Tahta",
		"name": "طهطا",
		"latitude": 26.770277777,
		"longitude": 31.502777777,
		"timezone": "Africa/Cairo"
	},
	{
		"city": "Samālūţ",
		"name": "سماالي",
		"latitude": 28.312222222,
		"longitude": 30.71,
		"timezone": "Africa/Cairo"
	},
	{
		"city": "Nasser",
		"name": "ناصر",
		"latitude": 29.1475,
		"longitude": 31.130555555,
		"timezone": "Africa/Cairo"
	},
	{
		"city": "Ḩawsh ‘Īsá",
		"name": "حوش عيسى",
		"latitude": 30.912777777,
		"longitude": 30.290277777,
		"timezone": "Africa/Cairo"
	},
	{
		"city": "Manfalut",
		"name": "منفلوط",
		"latitude": 27.312777777,
		"longitude": 30.970277777,
		"timezone": "Africa/Cairo"
	},
	{
		"city": "Ashmoun",
		"name": "أشمون",
		"latitude": 30.3,
		"longitude": 30.983333333,
		"timezone": "Africa/Cairo"
	},
	{
		"city": "Hermonthis",
		"name": "حرمونثيس",
		"latitude": 25.6167,
		"longitude": 32.5333,
		"timezone": "Africa/Cairo"
	},
	{
		"city": "Maghagha",
		"name": "مغاغة",
		"latitude": 28.648333333,
		"longitude": 30.842222222,
		"timezone": "Africa/Cairo"
	},
	{
		"city": "Kafr az Zayyāt",
		"name": "كفر الزيات",
		"latitude": 30.819722222,
		"longitude": 30.824166666,
		"timezone": "Africa/Cairo"
	},
	{
		"city": "Sharm el-Sheikh",
		"name": "شرم الشيخ",
		"latitude": 27.978611111,
		"longitude": 34.393611111,
		"timezone": "Africa/Cairo"
	},
	{
		"city": "Kom Ombo",
		"name": "كوم امبو",
		"latitude": 24.466666666,
		"longitude": 32.95,
		"timezone": "Africa/Cairo"
	},
	{
		"city": "Abū Tīj",
		"name": "أبو توج",
		"latitude": 27.044166666,
		"longitude": 31.318888888,
		"timezone": "Africa/Cairo"
	},
	{
		"city": "Cusae",
		"name": "كوزي",
		"latitude": 27.440277777,
		"longitude": 30.818333333,
		"timezone": "Africa/Cairo"
	},
	{
		"city": "Rosetta",
		"name": "رشيد",
		"latitude": 31.401388888,
		"longitude": 30.419444444,
		"timezone": "Africa/Cairo"
	},
	{
		"city": "Abnub",
		"name": "أبنوب",
		"latitude": 27.26666667,
		"longitude": 31.15,
		"timezone": "Africa/Cairo"
	},
	{
		"city": "Esna",
		"name": "اسنا",
		"latitude": 25.293333,
		"longitude": 32.556389,
		"timezone": "Africa/Cairo"
	},
	{
		"city": "Al Jamālīyah",
		"name": "الجمالية",
		"latitude": 31.180833333,
		"longitude": 31.865277777,
		"timezone": "Africa/Cairo"
	},
	{
		"city": "Mersa Matruh",
		"name": "مرسى مطروح",
		"latitude": 31.333333333,
		"longitude": 27.233333333,
		"timezone": "Africa/Cairo"
	},
	{
		"city": "Dairut",
		"name": "ديروط",
		"latitude": 27.566666666,
		"longitude": 30.816666666,
		"timezone": "Africa/Cairo"
	},
	{
		"city": "Toukh",
		"name": "طوخ",
		"latitude": 30.35487,
		"longitude": 31.20105,
		"timezone": "Africa/Cairo"
	},
	{
		"city": "Manzala",
		"name": "المنزلة",
		"latitude": 31.158055555,
		"longitude": 31.936944444,
		"timezone": "Africa/Cairo"
	},
	{
		"city": "Hihya",
		"name": "هيهيا",
		"latitude": 30.668702,
		"longitude": 31.5904,
		"timezone": "Africa/Cairo"
	},
	{
		"city": "Ptolemais Hermiou",
		"name": "بطليموس هيرميو",
		"latitude": 26.476944444,
		"longitude": 31.803611111,
		"timezone": "Africa/Cairo"
	},
	{
		"city": "Awsīm",
		"name": "أوسوم",
		"latitude": 30.123055555,
		"longitude": 31.135833333,
		"timezone": "Africa/Cairo"
	},
	{
		"city": "Fuwah",
		"name": "فوة",
		"latitude": 31.203611111,
		"longitude": 30.549166666,
		"timezone": "Africa/Cairo"
	},
	{
		"city": "Faqous",
		"name": "فاقوس",
		"latitude": 30.733333333,
		"longitude": 31.8,
		"timezone": "Africa/Cairo"
	},
	{
		"city": "Al Khānkah",
		"name": "الخانكة",
		"latitude": 30.210277777,
		"longitude": 31.368055555,
		"timezone": "Africa/Cairo"
	},
	{
		"city": "Al Qurayn",
		"name": "القرين",
		"latitude": 30.616111111,
		"longitude": 31.735,
		"timezone": "Africa/Cairo"
	},
	{
		"city": "Al Fashn",
		"name": "الفشن",
		"latitude": 28.822222222,
		"longitude": 30.898333333,
		"timezone": "Africa/Cairo"
	},
	{
		"city": "Abū Qurqāş",
		"name": "ابو قرقاص",
		"latitude": 27.931111111,
		"longitude": 30.838333333,
		"timezone": "Africa/Cairo"
	},
	{
		"city": "Al Manshāh",
		"name": "المنشاه",
		"latitude": 26.476944444,
		"longitude": 31.803611111,
		"timezone": "Africa/Cairo"
	},
	{
		"city": "el-Kharga Town",
		"name": "مدينة الخارجة",
		"latitude": 25.450561111,
		"longitude": 30.54525,
		"timezone": "Africa/Cairo"
	},
	{
		"city": "Qus",
		"name": "قوص",
		"latitude": 25.916666666,
		"longitude": 32.75,
		"timezone": "Africa/Cairo"
	},
	{
		"city": "Banī Mazār",
		"name": "بني مزار",
		"latitude": 28.503611111,
		"longitude": 30.800277777,
		"timezone": "Africa/Cairo"
	},
	{
		"city": "Biba, Egypt",
		"name": "ببا ، مصر",
		"latitude": 28.9218,
		"longitude": 30.9844,
		"timezone": "Africa/Cairo"
	},
	{
		"city": "Samannud",
		"name": "سمنود",
		"latitude": 30.96666667,
		"longitude": 31.25,
		"timezone": "Africa/Cairo"
	},
	{
		"city": "Minyat an Naşr",
		"name": "منية النصر",
		"latitude": 31.123888888,
		"longitude": 31.645833333,
		"timezone": "Africa/Cairo"
	},
	{
		"city": "Shibīn al Qanāṭir",
		"name": "شبين القناطر",
		"latitude": 30.31269,
		"longitude": 31.32018,
		"timezone": "Africa/Cairo"
	},
	{
		"city": "Al Qanāţir al Khayrīyah",
		"name": "القناطر الخيرية",
		"latitude": 30.193333333,
		"longitude": 31.136944444,
		"timezone": "Africa/Cairo"
	},
	{
		"city": "Basyoun",
		"name": "بسيون",
		"latitude": 30.936388888,
		"longitude": 30.811111111,
		"timezone": "Africa/Cairo"
	},
	{
		"city": "Sherbin",
		"name": "شربين",
		"latitude": 31.19222222,
		"longitude": 31.52388889,
		"timezone": "Africa/Cairo"
	},
	{
		"city": "Dishnā",
		"name": "دشنا",
		"latitude": 26.124722222,
		"longitude": 32.476111111,
		"timezone": "Africa/Cairo"
	},
	{
		"city": "Farshūţ",
		"name": "فرشو",
		"latitude": 26.055,
		"longitude": 32.163333333,
		"timezone": "Africa/Cairo"
	},
	{
		"city": "Dendera",
		"name": "دندرة",
		"latitude": 26.142194,
		"longitude": 32.669722,
		"timezone": "Africa/Cairo"
	},
	{
		"city": "Diyarb Najm",
		"name": "ديارب نجم",
		"latitude": 30.754444444,
		"longitude": 31.440277777,
		"timezone": "Africa/Cairo"
	},
	{
		"city": "At Tall al Kabīr",
		"name": "التل الكبير",
		"latitude": 30.54323,
		"longitude": 31.78504,
		"timezone": "Africa/Cairo"
	},
	{
		"city": "Tala",
		"name": "تالا",
		"latitude": 30.6801,
		"longitude": 30.9438,
		"timezone": "Africa/Cairo"
	},
	{
		"city": "Ibshawāy",
		"name": "إبشاوي",
		"latitude": 29.358055555,
		"longitude": 30.681388888,
		"timezone": "Africa/Cairo"
	},
	{
		"city": "Shuhada",
		"name": "الشهداء",
		"latitude": 31.08965,
		"longitude": 30.749,
		"timezone": "Africa/Cairo"
	},
	{
		"city": "Sīdī Sālim",
		"name": "سيدي سالم",
		"latitude": 31.271388888,
		"longitude": 30.786111111,
		"timezone": "Africa/Cairo"
	},
	{
		"city": "Juhaynah",
		"name": "جهينة",
		"latitude": 26.673055555,
		"longitude": 31.4975,
		"timezone": "Africa/Cairo"
	},
	{
		"city": "El-Balyana",
		"name": "البليانة",
		"latitude": 26.232927777,
		"longitude": 31.999261111,
		"timezone": "Africa/Cairo"
	},
	{
		"city": "Ţāmiyah",
		"name": "عامية",
		"latitude": 29.476388888,
		"longitude": 30.961111111,
		"timezone": "Africa/Cairo"
	},
	{
		"city": "Al Ḩāmūl",
		"name": "آل عمر",
		"latitude": 31.311388888,
		"longitude": 31.147777777,
		"timezone": "Africa/Cairo"
	},
	{
		"city": "Mashtūl as Sūq",
		"name": "مشتعل كالسق",
		"latitude": 30.360555555,
		"longitude": 31.3775,
		"timezone": "Africa/Cairo"
	},
	{
		"city": "Ain Sukhna",
		"name": "العين السخنة",
		"latitude": 29.60018,
		"longitude": 32.31671,
		"timezone": "Africa/Cairo"
	},
	{
		"city": "Iţsā",
		"name": "انه",
		"latitude": 29.2375,
		"longitude": 30.789444444,
		"timezone": "Africa/Cairo"
	},
	{
		"city": "Maţāy",
		"name": "معايا",
		"latitude": 28.418888888,
		"longitude": 30.779166666,
		"timezone": "Africa/Cairo"
	},
	{
		"city": "Nag Hammadi",
		"name": "نجع حمادي",
		"latitude": 26.05,
		"longitude": 32.25,
		"timezone": "Africa/Cairo"
	},
	{
		"city": "Al Badārī",
		"name": "البداري",
		"latitude": 26.99306,
		"longitude": 31.41605,
		"timezone": "Africa/Cairo"
	},
	{
		"city": "Tanis",
		"name": "تانيس",
		"latitude": 30.97478,
		"longitude": 31.87231,
		"timezone": "Africa/Cairo"
	},
	{
		"city": "Al Qanāyāt",
		"name": "القنايات",
		"latitude": 30.618888888,
		"longitude": 31.461111111,
		"timezone": "Africa/Cairo"
	},
	{
		"city": "Quweisna",
		"name": "قويسنا",
		"latitude": 30.564183,
		"longitude": 31.157219,
		"timezone": "Africa/Cairo"
	},
	{
		"city": "Herakleopolis Magna",
		"name": "هيراكليوبوليس ماجنا",
		"latitude": 29.085556,
		"longitude": 30.934444,
		"timezone": "Africa/Cairo"
	},
	{
		"city": "Daraw",
		"name": "دراو",
		"latitude": 24.400277777,
		"longitude": 32.930555555,
		"timezone": "Africa/Cairo"
	},
	{
		"city": "El-Maragha",
		"name": "المراغة",
		"latitude": 26.7,
		"longitude": 31.6,
		"timezone": "Africa/Cairo"
	},
	{
		"city": "Aş Şaff",
		"name": "آش صف",
		"latitude": 29.564722222,
		"longitude": 31.281111111,
		"timezone": "Africa/Cairo"
	},
	{
		"city": "Abu Qir",
		"name": "ابو قير",
		"latitude": 31.316666666,
		"longitude": 30.066666666,
		"timezone": "Africa/Cairo"
	},
	{
		"city": "Madīnat Sittah Uktūbar",
		"name": "مدينة ستّة أكتوبار",
		"latitude": 29.81667,
		"longitude": 31.05,
		"timezone": "Africa/Cairo"
	},
	{
		"city": "Abū al Maţāmīr",
		"name": "أبو المعمور",
		"latitude": 30.910277777,
		"longitude": 30.174444444,
		"timezone": "Africa/Cairo"
	},
	{
		"city": "Deir Mawas",
		"name": "دير مواس",
		"latitude": 27.641388888,
		"longitude": 30.849438888,
		"timezone": "Africa/Cairo"
	},
	{
		"city": "Ad Dilinjāt",
		"name": "Ad Dilinjāt",
		"latitude": 30.827777777,
		"longitude": 30.536388888,
		"timezone": "Africa/Cairo"
	},
	{
		"city": "El Zarqa",
		"name": "الزرقاء",
		"latitude": 31.2082,
		"longitude": 31.635,
		"timezone": "Africa/Cairo"
	},
	{
		"city": "Ezbet El Borg",
		"name": "عزبة البرج",
		"latitude": 31.503055555,
		"longitude": 31.841111111,
		"timezone": "Africa/Cairo"
	},
	{
		"city": "al-Wasta",
		"name": "الواسطى",
		"latitude": 29.337222222,
		"longitude": 31.203611111,
		"timezone": "Africa/Cairo"
	},
	{
		"city": "Sumusţā as Sulţānī",
		"name": "Sumus asā as Sulţān",
		"latitude": 28.916666666,
		"longitude": 30.85,
		"timezone": "Africa/Cairo"
	},
	{
		"city": "Faraskur",
		"name": "فارسكور",
		"latitude": 31.3289,
		"longitude": 31.7132,
		"timezone": "Africa/Cairo"
	},
	{
		"city": "Kawm Ḩamādah",
		"name": "كوم حمادة",
		"latitude": 30.760833333,
		"longitude": 30.697222222,
		"timezone": "Africa/Cairo"
	},
	{
		"city": "El-bagour",
		"name": "الباجور",
		"latitude": 30.433282,
		"longitude": 31.056862,
		"timezone": "Africa/Cairo"
	},
	{
		"city": "Al ‘Ayyāţ",
		"name": "العياط",
		"latitude": 29.619722222,
		"longitude": 31.2575,
		"timezone": "Africa/Cairo"
	},
	{
		"city": "Aga",
		"name": "آغا",
		"latitude": 30.94162,
		"longitude": 31.29039,
		"timezone": "Africa/Cairo"
	},
	{
		"city": "Al Ibrāhīmīyah",
		"name": "الإبراهيمية",
		"latitude": 30.718888888,
		"longitude": 31.563055555,
		"timezone": "Africa/Cairo"
	},
	{
		"city": "Ras Gharib",
		"name": "رأس غريب",
		"latitude": 28.359722222,
		"longitude": 33.0775,
		"timezone": "Africa/Cairo"
	},
	{
		"city": "Mahmoudiyah, Egypt",
		"name": "المحمودية ، مصر",
		"latitude": 31.1839,
		"longitude": 30.5242,
		"timezone": "Africa/Cairo"
	},
	{
		"city": "Safaga",
		"name": "سفاجا",
		"latitude": 26.751666666,
		"longitude": 33.934444444,
		"timezone": "Africa/Cairo"
	},
	{
		"city": "Qiman al-Arus",
		"name": "قيمان العروس",
		"latitude": 29.30047,
		"longitude": 31.16943,
		"timezone": "Africa/Cairo"
	},
	{
		"city": "Al Waqf",
		"name": "الوقف",
		"latitude": 26.080761,
		"longitude": 32.424503,
		"timezone": "Africa/Cairo"
	},
	{
		"city": "Kafr Saqr",
		"name": "كفر صقر",
		"latitude": 30.796389,
		"longitude": 31.626111,
		"timezone": "Africa/Cairo"
	},
	{
		"city": "El-Tod",
		"name": "التود",
		"latitude": 25.583038888,
		"longitude": 32.533611111,
		"timezone": "Africa/Cairo"
	},
	{
		"city": "Qaha",
		"name": "قها",
		"latitude": 30.28333333,
		"longitude": 31.2,
		"timezone": "Africa/Cairo"
	},
	{
		"city": "Karnak",
		"name": "الكرنك",
		"latitude": 25.718372,
		"longitude": 32.65805,
		"timezone": "Africa/Cairo"
	},
	{
		"city": "Meir",
		"name": "مئير",
		"latitude": 27.441944444,
		"longitude": 30.746944444,
		"timezone": "Africa/Cairo"
	},
	{
		"city": "el-Nazla",
		"name": "النزلة",
		"latitude": 29.3063,
		"longitude": 30.651261111,
		"timezone": "Africa/Cairo"
	},
	{
		"city": "Hirriyat Razna",
		"name": "حريات رزنا",
		"latitude": 30.602777777,
		"longitude": 31.537222222,
		"timezone": "Africa/Cairo"
	},
	{
		"city": "Al-Qusayr",
		"name": "القصير",
		"latitude": 26.109072222,
		"longitude": 34.275997222,
		"timezone": "Africa/Cairo"
	},
	{
		"city": "Quţūr",
		"name": "Quţūr",
		"latitude": 30.972222222,
		"longitude": 30.956111111,
		"timezone": "Africa/Cairo"
	},
	{
		"city": "Kafr Shukr",
		"name": "كفر شكر",
		"latitude": 30.546961,
		"longitude": 31.267333,
		"timezone": "Africa/Cairo"
	},
	{
		"city": "Sharuna",
		"name": "شارونا",
		"latitude": 28.593980555,
		"longitude": 30.851630555,
		"timezone": "Africa/Cairo"
	},
	{
		"city": "Busiris",
		"name": "بوسيرس",
		"latitude": 30.881666666,
		"longitude": 31.236388888,
		"timezone": "Africa/Cairo"
	},
	{
		"city": "Qift",
		"name": "Qift",
		"latitude": 26,
		"longitude": 32.816666666,
		"timezone": "Africa/Cairo"
	},
	{
		"city": "Bilifiya",
		"name": "بيليفيا",
		"latitude": 29.12085,
		"longitude": 31.05047,
		"timezone": "Africa/Cairo"
	},
	{
		"city": "Fayid",
		"name": "فايد",
		"latitude": 30.326111111,
		"longitude": 32.298611111,
		"timezone": "Africa/Cairo"
	},
	{
		"city": "Tummwah",
		"name": "تموة",
		"latitude": 29.9352,
		"longitude": 31.26307,
		"timezone": "Africa/Cairo"
	},
	{
		"city": "Naqada",
		"name": "نقادة",
		"latitude": 25.90107,
		"longitude": 32.72392,
		"timezone": "Africa/Cairo"
	},
	{
		"city": "al-Fant",
		"name": "آل فنت",
		"latitude": 28.75259,
		"longitude": 30.87716,
		"timezone": "Africa/Cairo"
	},
	{
		"city": "Mit Nama",
		"name": "ميت ناما",
		"latitude": 30.145330555,
		"longitude": 31.23435,
		"timezone": "Africa/Cairo"
	},
	{
		"city": "Cynopolis",
		"name": "سينوبوليس",
		"latitude": 28.4833,
		"longitude": 30.7833,
		"timezone": "Africa/Cairo"
	},
	{
		"city": "Sunbat",
		"name": "سنباط",
		"latitude": 30.805738888,
		"longitude": 31.207011111,
		"timezone": "Africa/Cairo"
	},
	{
		"city": "Sais",
		"name": "سايس",
		"latitude": 30.96124,
		"longitude": 30.76802,
		"timezone": "Africa/Cairo"
	},
	{
		"city": "Bawiti",
		"name": "الباويطي",
		"latitude": 28.35,
		"longitude": 28.866666666,
		"timezone": "Africa/Cairo"
	},
	{
		"city": "Deir Abu Hinnis",
		"name": "دير أبو هنيس",
		"latitude": 27.786388888,
		"longitude": 30.905,
		"timezone": "Africa/Cairo"
	},
	{
		"city": "Mut",
		"name": "موت",
		"latitude": 25.4875,
		"longitude": 28.983333333,
		"timezone": "Africa/Cairo"
	},
	{
		"city": "Abū Ṣīr el-Malaq",
		"name": "أبو صير الملق",
		"latitude": 29.251666666,
		"longitude": 31.091944444,
		"timezone": "Africa/Cairo"
	},
	{
		"city": "Beni Hasan",
		"name": "بني حسن",
		"latitude": 27.931388888,
		"longitude": 30.875280555,
		"timezone": "Africa/Cairo"
	},
	{
		"city": "Biahmu",
		"name": "بياهمو",
		"latitude": 29.369630555,
		"longitude": 30.853788888,
		"timezone": "Africa/Cairo"
	},
	{
		"city": "el-Bayahu",
		"name": "البياهو",
		"latitude": 28.261388888,
		"longitude": 30.731669444,
		"timezone": "Africa/Cairo"
	},
	{
		"city": "El Hiba",
		"name": "الهبة",
		"latitude": 28.8,
		"longitude": 30.91666667,
		"timezone": "Africa/Cairo"
	},
	{
		"city": "Tuna el-Gebel",
		"name": "تونة الجبل",
		"latitude": 27.77455,
		"longitude": 30.7386,
		"timezone": "Africa/Cairo"
	},
	{
		"city": "el-Bahnasa",
		"name": "البهناسة",
		"latitude": 28.535280555,
		"longitude": 30.660561111,
		"timezone": "Africa/Cairo"
	},
	{
		"city": "Burg Rashid",
		"name": "برج راشد",
		"latitude": 31.439169444,
		"longitude": 30.39,
		"timezone": "Africa/Cairo"
	},
	{
		"city": "Medamud",
		"name": "مدامود",
		"latitude": 25.733330555,
		"longitude": 32.7125,
		"timezone": "Africa/Cairo"
	},
	{
		"city": "El Gouna",
		"name": "الجونة",
		"latitude": 27.385,
		"longitude": 33.679166666,
		"timezone": "Africa/Cairo"
	},
	{
		"city": "Xois",
		"name": "كسويس",
		"latitude": 31.088055555,
		"longitude": 30.945555555,
		"timezone": "Africa/Cairo"
	},
	{
		"city": "Deir el-Bersha",
		"name": "دير البرشا",
		"latitude": 27.757219444,
		"longitude": 30.91,
		"timezone": "Africa/Cairo"
	},
	{
		"city": "Dalas",
		"name": "دالاس",
		"latitude": 29.18587,
		"longitude": 31.13432,
		"timezone": "Africa/Cairo"
	},
	{
		"city": "Birqash",
		"name": "بيرقاش",
		"latitude": 30.169166666,
		"longitude": 31.041666666,
		"timezone": "Africa/Cairo"
	},
	{
		"city": "Qantir",
		"name": "قنطار",
		"latitude": 30.803188888,
		"longitude": 31.83795,
		"timezone": "Africa/Cairo"
	},
	{
		"city": "Sidmant el-Gebel",
		"name": "سيدمنت الجبل",
		"latitude": 29.085555555,
		"longitude": 30.934444444,
		"timezone": "Africa/Cairo"
	},
	{
		"city": "Deir el-Adra, Gebel et-Teir",
		"name": "دير العدرا ، جبل الطير",
		"latitude": 28.280561111,
		"longitude": 30.7475,
		"timezone": "Africa/Cairo"
	},
	{
		"city": "Zawyet el-Maiyitin",
		"name": "زاوية المييتين",
		"latitude": 28.0625,
		"longitude": 30.8175,
		"timezone": "Africa/Cairo"
	},
	{
		"city": "El-Tor",
		"name": "الطور",
		"latitude": 28.233333333,
		"longitude": 33.616666666,
		"timezone": "Africa/Cairo"
	},
	{
		"city": "Borg El Arab",
		"name": "برج العرب",
		"latitude": 30.916666666,
		"longitude": 29.533333333,
		"timezone": "Africa/Cairo"
	},
	{
		"city": "Dishasha",
		"name": "ديشاشا",
		"latitude": 28.98335,
		"longitude": 30.84872,
		"timezone": "Africa/Cairo"
	},
	{
		"city": "Mit Damsis",
		"name": "ميت دامسيس",
		"latitude": 30.82665,
		"longitude": 31.222611111,
		"timezone": "Africa/Cairo"
	},
	{
		"city": "el-Qala",
		"name": "القلعة",
		"latitude": 26.005138888,
		"longitude": 32.817830555,
		"timezone": "Africa/Cairo"
	},
	{
		"city": "al-Qayat",
		"name": "القيات",
		"latitude": 28.6676,
		"longitude": 30.68747,
		"timezone": "Africa/Cairo"
	},
	{
		"city": "Sawada",
		"name": "سوادا",
		"latitude": 28.0775,
		"longitude": 30.795280555,
		"timezone": "Africa/Cairo"
	},
	{
		"city": "Abgig",
		"name": "أبج",
		"latitude": 29.286117,
		"longitude": 30.815168,
		"timezone": "Africa/Cairo"
	},
	{
		"city": "Behbeit el-Hagara",
		"name": "بهبيت الحجارة",
		"latitude": 31.031111111,
		"longitude": 31.286666666,
		"timezone": "Africa/Cairo"
	},
	{
		"city": "Taha el-Amida",
		"name": "طه الاميدا",
		"latitude": 28.189169444,
		"longitude": 30.698061111,
		"timezone": "Africa/Cairo"
	},
	{
		"city": "Bawit",
		"name": "باويت",
		"latitude": 27.55,
		"longitude": 30.720833333,
		"timezone": "Africa/Cairo"
	},
	{
		"city": "Shanhur",
		"name": "شنهور",
		"latitude": 25.860388888,
		"longitude": 32.777888888,
		"timezone": "Africa/Cairo"
	},
	{
		"city": "Mandisha",
		"name": "منديشا",
		"latitude": 28.351538888,
		"longitude": 28.931719444,
		"timezone": "Africa/Cairo"
	},
	{
		"city": "Basuna",
		"name": "باسونا",
		"latitude": 26.67282,
		"longitude": 31.60415,
		"timezone": "Africa/Cairo"
	},
	{
		"city": "al-Hammamiya",
		"name": "الحمامات",
		"latitude": 26.93071,
		"longitude": 31.48813,
		"timezone": "Africa/Cairo"
	},
	{
		"city": "Deir el-Sanquriya",
		"name": "دير السنقورية",
		"latitude": 28.483330555,
		"longitude": 30.65,
		"timezone": "Africa/Cairo"
	},
	{
		"city": "Ishnin el-Nasara",
		"name": "عشنين النصارى",
		"latitude": 28.6125,
		"longitude": 30.772219444,
		"timezone": "Africa/Cairo"
	},
	{
		"city": "Sallum",
		"name": "السلوم",
		"latitude": 31.5525,
		"longitude": 25.1575,
		"timezone": "Africa/Cairo"
	},
	{
		"city": "Mo'alla",
		"name": "المعلا",
		"latitude": 25.472219444,
		"longitude": 32.525,
		"timezone": "Africa/Cairo"
	},
	{
		"city": "Akoris",
		"name": "أكوريس",
		"latitude": 28.188888888,
		"longitude": 30.769438888,
		"timezone": "Africa/Cairo"
	},
	{
		"city": "el-Kufur",
		"name": "الكفر",
		"latitude": 28.445425,
		"longitude": 30.810727777,
		"timezone": "Africa/Cairo"
	},
	{
		"city": "al-Hammam",
		"name": "الحمام",
		"latitude": 29.22977,
		"longitude": 31.01547,
		"timezone": "Africa/Cairo"
	},
	{
		"city": "Antinoöpolis",
		"name": "أنتينوبوليس",
		"latitude": 27.8075,
		"longitude": 30.872780555,
		"timezone": "Africa/Cairo"
	},
	{
		"city": "Siwa Oasis",
		"name": "واحة سيوة",
		"latitude": 29.2032,
		"longitude": 25.51965,
		"timezone": "Africa/Cairo"
	},
	{
		"city": "Shalateen",
		"name": "شلاتين",
		"latitude": 23.133333333,
		"longitude": 35.6,
		"timezone": "Africa/Cairo"
	},
	{
		"city": "Deir el-Garnus",
		"name": "دير الجرنوس",
		"latitude": 28.61,
		"longitude": 30.706669444,
		"timezone": "Africa/Cairo"
	},
	{
		"city": "al-Harraniya",
		"name": "الحرانية",
		"latitude": 29.96667,
		"longitude": 31.16667,
		"timezone": "Africa/Cairo"
	},
	{
		"city": "Saint Catherine",
		"name": "سانت كاترين",
		"latitude": 28.5644,
		"longitude": 33.9524,
		"timezone": "Africa/Cairo"
	},
	{
		"city": "Dahab",
		"name": "دهب",
		"latitude": 28.493055555,
		"longitude": 34.504722222,
		"timezone": "Africa/Cairo"
	},
	{
		"city": "Qasr el-Dakhla",
		"name": "قصر الداخلة",
		"latitude": 25.695869444,
		"longitude": 28.8837,
		"timezone": "Africa/Cairo"
	},
	{
		"city": "Makadi Bay",
		"name": "خليج مكادي",
		"latitude": 26.9931,
		"longitude": 33.898569444,
		"timezone": "Africa/Cairo"
	},
	{
		"city": "el-Zabu",
		"name": "الزبو",
		"latitude": 28.369388888,
		"longitude": 28.936738888,
		"timezone": "Africa/Cairo"
	},
	{
		"city": "Baris",
		"name": "باريس",
		"latitude": 24.674280555,
		"longitude": 30.602288888,
		"timezone": "Africa/Cairo"
	},
	{
		"city": "Munshāt ‘Alī Āghā",
		"name": "منشأت علي اغا",
		"latitude": 31.15791,
		"longitude": 30.70177,
		"timezone": "Africa/Cairo"
	},
	{
		"city": "Balat",
		"name": "بلاط",
		"latitude": 25.564030555,
		"longitude": 29.265819444,
		"timezone": "Africa/Cairo"
	},
	{
		"city": "Tineida",
		"name": "تينييدا",
		"latitude": 25.512861111,
		"longitude": 29.339969444,
		"timezone": "Africa/Cairo"
	},
	{
		"city": "Farafra town",
		"name": "بلدة الفرافرة",
		"latitude": 27.05947,
		"longitude": 27.96793,
		"timezone": "Africa/Cairo"
	},
	{
		"city": "Deir Durunka",
		"name": "دير دورونكا",
		"latitude": 27.111388888,
		"longitude": 31.166666666,
		"timezone": "Africa/Cairo"
	},
	{
		"city": "Ismant",
		"name": "إسمنت",
		"latitude": 25.5269,
		"longitude": 29.0678,
		"timezone": "Africa/Cairo"
	},
	{
		"city": "al-Ma'sara, el-Dakhla",
		"name": "المعصرة بالداخلة",
		"latitude": 25.509408333,
		"longitude": 29.05695,
		"timezone": "Africa/Cairo"
	},
	{
		"city": "Nuweiba",
		"name": "نويبع",
		"latitude": 29.033969444,
		"longitude": 34.659094444,
		"timezone": "Africa/Cairo"
	},
	{
		"city": "Zawiyet Umm el-Rakham",
		"name": "زاوية أم الرخم",
		"latitude": 31.39611111,
		"longitude": 27.04388889,
		"timezone": "Africa/Cairo"
	},
	{
		"city": "Abu Simbel",
		"name": "أبو سمبل",
		"latitude": 22.336944444,
		"longitude": 31.625555555,
		"timezone": "Africa/Cairo"
	},
	{
		"city": "El Alamein",
		"name": "العلمين",
		"latitude": 30.833333333,
		"longitude": 28.95,
		"timezone": "Africa/Cairo"
	},
	{
		"city": "el-Munira",
		"name": "المنيرة",
		"latitude": 25.616652777,
		"longitude": 30.649716666,
		"timezone": "Africa/Cairo"
	},
	{
		"city": "Gabal an-Nur",
		"name": "جبل النور",
		"latitude": 28.95,
		"longitude": 31.03333,
		"timezone": "Africa/Cairo"
	},
	{
		"city": "Dayr al-Maymun",
		"name": "دير الميمون",
		"latitude": 29.22519,
		"longitude": 31.22026,
		"timezone": "Africa/Cairo"
	},
	{
		"city": "Marsa Alam",
		"name": "مرسى علم",
		"latitude": 25.066666666,
		"longitude": 34.9,
		"timezone": "Africa/Cairo"
	},
	{
		"city": "El-Qalamun",
		"name": "القلمون",
		"latitude": 25.550277777,
		"longitude": 28.908055555,
		"timezone": "Africa/Cairo"
	},
	{
		"city": "Aghurmi",
		"name": "أغورمي",
		"latitude": 29.205138888,
		"longitude": 25.543588888,
		"timezone": "Africa/Cairo"
	},
	{
		"city": "el-Maks el-Qibli",
		"name": "المكس القبلي",
		"latitude": 24.555238888,
		"longitude": 30.611088888,
		"timezone": "Africa/Cairo"
	},
	{
		"city": "Taba",
		"name": "طابا",
		"latitude": 29.49199,
		"longitude": 34.89572,
		"timezone": "Africa/Cairo"
	},
	{
		"city": "Ras Nasrani",
		"name": "رأس نصراني",
		"latitude": 27.964719444,
		"longitude": 34.416111111,
		"timezone": "Africa/Cairo"
	},
	{
		"city": "Saqqara",
		"name": "سقارة",
		"latitude": 29.85,
		"longitude": 31.233333333,
		"timezone": "Africa/Cairo"
	},
	{
		"city": "Ginah",
		"name": "جينا",
		"latitude": 25.328938888,
		"longitude": 30.530330555,
		"timezone": "Africa/Cairo"
	},
	{
		"city": "Abū Şīr",
		"name": "Ab .r",
		"latitude": 29.883333333,
		"longitude": 31.216666666,
		"timezone": "Africa/Cairo"
	},
	{
		"city": "Hamata",
		"name": "حماطة",
		"latitude": 24.28595,
		"longitude": 35.378888888,
		"timezone": "Africa/Cairo"
	}
]
