[
	{
		"city": "Riyadh",
		"name": "مدينة الرياض",
		"latitude": 24.65,
		"longitude": 46.71,
		"timezone": "Asia/Riyadh"
	},
	{
		"city": "Jeddah",
		"name": "جدة",
		"latitude": 21.542777777,
		"longitude": 39.172777777,
		"timezone": "Asia/Riyadh"
	},
	{
		"city": "Mecca",
		"name": "مكة المكرمة",
		"latitude": 21.4225,
		"longitude": 39.826111111,
		"timezone": "Asia/Riyadh"
	},
	{
		"city": "Medina",
		"name": "المدينة المنورة",
		"latitude": 24.466666666,
		"longitude": 39.6,
		"timezone": "Asia/Riyadh"
	},
	{
		"city": "Sultanah",
		"name": "سلطانة",
		"latitude": 24.5,
		"longitude": 39.5833,
		"timezone": "Asia/Riyadh"
	},
	{
		"city": "Dammam",
		"name": "الدمام",
		"latitude": 26.433333333,
		"longitude": 50.1,
		"timezone": "Asia/Riyadh"
	},
	{
		"city": "Ta'if",
		"name": "الطائف",
		"latitude": 21.266666666,
		"longitude": 40.416666666,
		"timezone": "Asia/Riyadh"
	},
	{
		"city": "Tabuk, Saudi Arabia",
		"name": "تبوك ، السعودية",
		"latitude": 28.397222222,
		"longitude": 36.578888888,
		"timezone": "Asia/Riyadh"
	},
	{
		"city": "Buraidah",
		"name": "بريدة",
		"latitude": 26.333333333,
		"longitude": 43.966666666,
		"timezone": "Asia/Riyadh"
	},
	{
		"city": "Khamis Mushait",
		"name": "خميس مشيط",
		"latitude": 18.3,
		"longitude": 42.733333333,
		"timezone": "Asia/Riyadh"
	},
	{
		"city": "Hafar Al-Batin governorate",
		"name": "محافظة حفر الباطن",
		"latitude": 28.434166666,
		"longitude": 45.963611111,
		"timezone": "Asia/Riyadh"
	},
	{
		"city": "Al-Kharj governorate",
		"name": "محافظة الخرج",
		"latitude": 24.14833,
		"longitude": 47.305,
		"timezone": "Asia/Riyadh"
	},
	{
		"city": "Ha'il, Saudi Arabia",
		"name": "حائل ، المملكة العربية السعودية",
		"latitude": 27.516666666,
		"longitude": 41.683333333,
		"timezone": "Asia/Riyadh"
	},
	{
		"city": "Jubail",
		"name": "الجبيل",
		"latitude": 27,
		"longitude": 49.666666666,
		"timezone": "Asia/Riyadh"
	},
	{
		"city": "Yanbu governorate",
		"name": "محافظة ينبع",
		"latitude": 24.083333333,
		"longitude": 38,
		"timezone": "Asia/Riyadh"
	},
	{
		"city": "Al Hufūf",
		"name": "الهفوف",
		"latitude": 25.36467,
		"longitude": 49.58764,
		"timezone": "Asia/Riyadh"
	},
	{
		"city": "Najran",
		"name": "نجران",
		"latitude": 17.4917,
		"longitude": 44.1322,
		"timezone": "Asia/Riyadh"
	},
	{
		"city": "Al Mubarraz",
		"name": "المبرز",
		"latitude": 25.40768,
		"longitude": 49.59028,
		"timezone": "Asia/Riyadh"
	},
	{
		"city": "Khobar",
		"name": "مدينه الخبر",
		"latitude": 26.3,
		"longitude": 50.216666666,
		"timezone": "Asia/Riyadh"
	},
	{
		"city": "Dawadmi",
		"name": "الدوادمي",
		"latitude": 24.494166666,
		"longitude": 44.383333333,
		"timezone": "Asia/Riyadh"
	},
	{
		"city": "Abha",
		"name": "أبها",
		"latitude": 18.216666666,
		"longitude": 42.5,
		"timezone": "Asia/Riyadh"
	},
	{
		"city": "Arar",
		"name": "عرعر",
		"latitude": 30.983333333,
		"longitude": 41.016666666,
		"timezone": "Asia/Riyadh"
	},
	{
		"city": "Dhahran",
		"name": "الظهران",
		"latitude": 26.266666666,
		"longitude": 50.15,
		"timezone": "Asia/Riyadh"
	},
	{
		"city": "Ar Rass",
		"name": "الرس",
		"latitude": 25.866666666,
		"longitude": 43.5,
		"timezone": "Asia/Riyadh"
	},
	{
		"city": "Sakakah",
		"name": "سكاكا",
		"latitude": 29.969722222,
		"longitude": 40.2,
		"timezone": "Asia/Riyadh"
	},
	{
		"city": "Jizan",
		"name": "جيزان",
		"latitude": 16.889166666,
		"longitude": 42.561111111,
		"timezone": "Asia/Riyadh"
	},
	{
		"city": "Qurayyat",
		"name": "قريات",
		"latitude": 31.3167,
		"longitude": 37.3667,
		"timezone": "Asia/Riyadh"
	},
	{
		"city": "Sabt Al Alayah",
		"name": "سبت العلايه",
		"latitude": 19.7,
		"longitude": 41.91667,
		"timezone": "Asia/Riyadh"
	},
	{
		"city": "Al Qaţīf",
		"name": "القيف",
		"latitude": 26.56542,
		"longitude": 50.0089,
		"timezone": "Asia/Riyadh"
	},
	{
		"city": "Al Bahah",
		"name": "الباحة",
		"latitude": 20.01288,
		"longitude": 41.46767,
		"timezone": "Asia/Riyadh"
	},
	{
		"city": "Tārūt",
		"name": "تارات",
		"latitude": 26.57332,
		"longitude": 50.03694,
		"timezone": "Asia/Riyadh"
	},
	{
		"city": "Bisha",
		"name": "بيشة",
		"latitude": 20,
		"longitude": 42.6,
		"timezone": "Asia/Riyadh"
	},
	{
		"city": "Alshafa",
		"name": "الشفاء",
		"latitude": 21.07268,
		"longitude": 40.31842,
		"timezone": "Asia/Riyadh"
	},
	{
		"city": "Badr governorate",
		"name": "محافظة بدر",
		"latitude": 23.78,
		"longitude": 38.790555555,
		"timezone": "Asia/Riyadh"
	},
	{
		"city": "Saihat",
		"name": "سيهات",
		"latitude": 26.475,
		"longitude": 50.041666666,
		"timezone": "Asia/Riyadh"
	},
	{
		"city": "Al Mithnab",
		"name": "المذنب",
		"latitude": 25.86012,
		"longitude": 44.22228,
		"timezone": "Asia/Riyadh"
	},
	{
		"city": "Al Khafjī",
		"name": "الخفجي",
		"latitude": 28.439166666,
		"longitude": 48.491388888,
		"timezone": "Asia/Riyadh"
	},
	{
		"city": "Sabya",
		"name": "صبيا",
		"latitude": 17.148992,
		"longitude": 42.625923,
		"timezone": "Asia/Riyadh"
	},
	{
		"city": "Az Zulfi",
		"name": "الزلفي",
		"latitude": 26.299444444,
		"longitude": 44.815555555,
		"timezone": "Asia/Riyadh"
	},
	{
		"city": "Abu `Arish",
		"name": "ابو عريش",
		"latitude": 16.9689,
		"longitude": 42.8325,
		"timezone": "Asia/Riyadh"
	},
	{
		"city": "Safwa City",
		"name": "مدينة صفوى",
		"latitude": 26.65,
		"longitude": 49.95,
		"timezone": "Asia/Riyadh"
	},
	{
		"city": "Rabigh",
		"name": "رابغ",
		"latitude": 22.8,
		"longitude": 39.0333,
		"timezone": "Asia/Riyadh"
	},
	{
		"city": "Tabarjal",
		"name": "طبرجل",
		"latitude": 30.5,
		"longitude": 38.2167,
		"timezone": "Asia/Riyadh"
	},
	{
		"city": "Ad-Dilam",
		"name": "الدلم",
		"latitude": 23.991111111,
		"longitude": 47.161944444,
		"timezone": "Asia/Riyadh"
	},
	{
		"city": "Umm Lajj",
		"name": "أم لاج",
		"latitude": 25.021388888,
		"longitude": 37.268611111,
		"timezone": "Asia/Riyadh"
	},
	{
		"city": "Turaif",
		"name": "طريف",
		"latitude": 31.6775,
		"longitude": 38.653055555,
		"timezone": "Asia/Riyadh"
	},
	{
		"city": "Al-`Ula",
		"name": "العلا",
		"latitude": 26.6084813,
		"longitude": 37.9242897,
		"timezone": "Asia/Riyadh"
	},
	{
		"city": "Samtah",
		"name": "صامطة",
		"latitude": 16.597222222,
		"longitude": 42.943888888,
		"timezone": "Asia/Riyadh"
	},
	{
		"city": "Abqaiq",
		"name": "ابقيق",
		"latitude": 25.933333333,
		"longitude": 49.666666666,
		"timezone": "Asia/Riyadh"
	},
	{
		"city": "Al Bukayriyah",
		"name": "البكيرية",
		"latitude": 26.13915,
		"longitude": 43.65782,
		"timezone": "Asia/Riyadh"
	},
	{
		"city": "Afif",
		"name": "عفيف",
		"latitude": 23.91,
		"longitude": 42.920277777,
		"timezone": "Asia/Riyadh"
	},
	{
		"city": "Al Wajh",
		"name": "الوجه",
		"latitude": 26.283333333,
		"longitude": 36.416666666,
		"timezone": "Asia/Riyadh"
	},
	{
		"city": "Al-Namas",
		"name": "النماص",
		"latitude": 19.12,
		"longitude": 42.13,
		"timezone": "Asia/Riyadh"
	},
	{
		"city": "As Sulayyil",
		"name": "السليل",
		"latitude": 20.459722222,
		"longitude": 45.574444444,
		"timezone": "Asia/Riyadh"
	},
	{
		"city": "Turabah",
		"name": "تورابة",
		"latitude": 21.214166666,
		"longitude": 41.633055555,
		"timezone": "Asia/Riyadh"
	},
	{
		"city": "Duba",
		"name": "ضباء",
		"latitude": 27.35134,
		"longitude": 35.69014,
		"timezone": "Asia/Riyadh"
	},
	{
		"city": "Al Jumum",
		"name": "الجموم",
		"latitude": 21.6167,
		"longitude": 39.7,
		"timezone": "Asia/Riyadh"
	},
	{
		"city": "At Taraf",
		"name": "في طرف",
		"latitude": 25.358333333,
		"longitude": 49.725,
		"timezone": "Asia/Riyadh"
	},
	{
		"city": "Qaisumah",
		"name": "القيصومة",
		"latitude": 28.3097,
		"longitude": 46.1275,
		"timezone": "Asia/Riyadh"
	},
	{
		"city": "Al Baţţālīyah",
		"name": "البعلية",
		"latitude": 25.433333333,
		"longitude": 49.633333333,
		"timezone": "Asia/Riyadh"
	},
	{
		"city": "Al Munayzilah",
		"name": "المنيسلة",
		"latitude": 25.383333333,
		"longitude": 49.666666666,
		"timezone": "Asia/Riyadh"
	},
	{
		"city": "Al Majāridah",
		"name": "المجردة",
		"latitude": 19.123611111,
		"longitude": 41.911111111,
		"timezone": "Asia/Riyadh"
	},
	{
		"city": "Adh Dhibiyah",
		"name": "الظبية",
		"latitude": 26.027,
		"longitude": 43.157,
		"timezone": "Asia/Riyadh"
	},
	{
		"city": "Al-H̨arīq governorate",
		"name": "محافظة الحارق",
		"latitude": 23.63,
		"longitude": 46.51,
		"timezone": "Asia/Riyadh"
	},
	{
		"city": "Tanūmah",
		"name": "تنومة",
		"latitude": 27.1,
		"longitude": 44.133333333,
		"timezone": "Asia/Riyadh"
	},
	{
		"city": "Al Qurayn",
		"name": "القرين",
		"latitude": 25.483333333,
		"longitude": 49.6,
		"timezone": "Asia/Riyadh"
	},
	{
		"city": "Al Fawarah",
		"name": "الفوارة",
		"latitude": 26.06235,
		"longitude": 42.65913,
		"timezone": "Asia/Riyadh"
	},
	{
		"city": "Sājir",
		"name": "ساجير",
		"latitude": 25.1825,
		"longitude": 44.599722222,
		"timezone": "Asia/Riyadh"
	},
	{
		"city": "Umm as Sāhik",
		"name": "أم الساحق",
		"latitude": 26.653611111,
		"longitude": 49.916388888,
		"timezone": "Asia/Riyadh"
	},
	{
		"city": "Al-Awjam",
		"name": "الاوجام",
		"latitude": 26.5583,
		"longitude": 49.9503,
		"timezone": "Asia/Riyadh"
	},
	{
		"city": "Al Mindak",
		"name": "المينداك",
		"latitude": 20.158888888,
		"longitude": 41.283333333,
		"timezone": "Asia/Riyadh"
	},
	{
		"city": "Al Arţāwīyah",
		"name": "العروحية",
		"latitude": 26.50387,
		"longitude": 45.34813,
		"timezone": "Asia/Riyadh"
	},
	{
		"city": "Al Qārah",
		"name": "القراح",
		"latitude": 25.416666666,
		"longitude": 49.666666666,
		"timezone": "Asia/Riyadh"
	},
	{
		"city": "Farasan",
		"name": "فرسان",
		"latitude": 16.7022,
		"longitude": 42.1183,
		"timezone": "Asia/Riyadh"
	},
	{
		"city": "Marāt",
		"name": "مارات",
		"latitude": 25.07007,
		"longitude": 45.46147,
		"timezone": "Asia/Riyadh"
	},
	{
		"city": "Al Jafr",
		"name": "الجفر",
		"latitude": 25.37736,
		"longitude": 49.72154,
		"timezone": "Asia/Riyadh"
	},
	{
		"city": "Şuwayr",
		"name": "طوير",
		"latitude": 30.117222222,
		"longitude": 40.389166666,
		"timezone": "Asia/Riyadh"
	},
	{
		"city": "Tumayr",
		"name": "تمير",
		"latitude": 25.70393,
		"longitude": 45.86796,
		"timezone": "Asia/Riyadh"
	},
	{
		"city": "At Tūbī",
		"name": "في توبي",
		"latitude": 26.557777777,
		"longitude": 49.991666666,
		"timezone": "Asia/Riyadh"
	},
	{
		"city": "Al Jaradiyah",
		"name": "الجرادية",
		"latitude": 16.5794,
		"longitude": 42.9125,
		"timezone": "Asia/Riyadh"
	},
	{
		"city": "Al Muwayh",
		"name": "المويه",
		"latitude": 22.43333,
		"longitude": 41.75829,
		"timezone": "Asia/Riyadh"
	},
	{
		"city": "Al Hada",
		"name": "الهدا",
		"latitude": 21.3686,
		"longitude": 40.2847,
		"timezone": "Asia/Riyadh"
	},
	{
		"city": "As Saffānīyah",
		"name": "السفانية",
		"latitude": 27.970833333,
		"longitude": 48.73,
		"timezone": "Asia/Riyadh"
	},
	{
		"city": "Al Markaz",
		"name": "المركز",
		"latitude": 25.4,
		"longitude": 49.733333333,
		"timezone": "Asia/Riyadh"
	},
	{
		"city": "Mislīyah",
		"name": "ميسلية",
		"latitude": 17.46,
		"longitude": 42.557222222,
		"timezone": "Asia/Riyadh"
	},
	{
		"city": "Al Muţayrifī",
		"name": "المحيرفي",
		"latitude": 25.47878,
		"longitude": 49.55824,
		"timezone": "Asia/Riyadh"
	},
	{
		"city": "Mizhirah",
		"name": "المزهرة",
		"latitude": 16.826111111,
		"longitude": 42.733333333,
		"timezone": "Asia/Riyadh"
	},
	{
		"city": "Ad Darb",
		"name": "Ad Darb",
		"latitude": 17.722777777,
		"longitude": 42.2525,
		"timezone": "Asia/Riyadh"
	},
	{
		"city": "Julayjilah",
		"name": "جليجلة",
		"latitude": 25.5,
		"longitude": 49.6,
		"timezone": "Asia/Riyadh"
	},
	{
		"city": "Mulayjah",
		"name": "مليجة",
		"latitude": 27.271111111,
		"longitude": 48.424166666,
		"timezone": "Asia/Riyadh"
	},
	{
		"city": "Al Fuwayliq",
		"name": "الفويلق",
		"latitude": 26.4436,
		"longitude": 43.25164,
		"timezone": "Asia/Riyadh"
	},
	{
		"city": "Tabālah",
		"name": "طبالة",
		"latitude": 19.95,
		"longitude": 42.4,
		"timezone": "Asia/Riyadh"
	},
	{
		"city": "Ghran",
		"name": "غران",
		"latitude": 21.98027,
		"longitude": 39.36521,
		"timezone": "Asia/Riyadh"
	},
	{
		"city": "Ain AlBaraha",
		"name": "عين البراحة",
		"latitude": 24.75806,
		"longitude": 43.77389,
		"timezone": "Asia/Riyadh"
	},
	{
		"city": "Wed Alnkil",
		"name": "ود النكيل",
		"latitude": 25.4267,
		"longitude": 42.8343,
		"timezone": "Asia/Riyadh"
	},
	{
		"city": "shokhaibٍ",
		"name": "شخيب",
		"latitude": 24.49023,
		"longitude": 46.26871,
		"timezone": "Asia/Riyadh"
	}
]
